{"type": "FeatureCollection", "features": [{"type": "Feature", "properties": {"id": "2611606", "name": "Recife", "uf": "PE"}, "geometry": {"type": "Point", "coordinates": [-34.877, -8.0476]}}, {"type": "Feature", "properties": {"id": "2607901", "name": "Jaboatão dos Guararapes", "uf": "PE"}, "geometry": {"type": "Point", "coordinates": [-35.014, -8.112]}}, {"type": "Feature", "properties": {"id": "2609600", "name": "Olinda", "uf": "PE"}, "geometry": {"type": "Point", "coordinates": [-34.8553, -8.0089]}}, {"type": "Feature", "properties": {"id": "3550308", "name": "São Paulo", "uf": "SP"}, "geometry": {"type": "Point", "coordinates": [-46.6333, -23.5505]}}, {"type": "Feature", "properties": {"id": "3304557", "name": "Rio de Janeiro", "uf": "RJ"}, "geometry": {"type": "Point", "coordinates": [-43.1729, -22.9068]}}, {"type": "Feature", "properties": {"id": "5300108", "name": "Brasília", "uf": "DF"}, "geometry": {"type": "Point", "coordinates": [-47.8828, -15.7939]}}]}